[
  {
    "name": "Alabama State University",
    "lat": 32.364317,
    "lng": -86.295677
  },
  {
    "name": "Albany State University",
    "lat": 31.56928,
    "lng": -84.141825
  },
  {
    "name": "Alcorn State University",
    "lat": 31.877216,
    "lng": -91.142854
  },
  {
    "name": "Allen University",
    "lat": 34.010348,
    "lng": -81.020045
  },
  {
    "name": "American Baptist College",
    "lat": 36.202623,
    "lng": -86.789912
  },
  {
    "name": "Arkansas Baptist College",
    "lat": 34.734751,
    "lng": -92.290555
  },
  {
    "name": "Benedict College",
    "lat": 34.012941,
    "lng": -81.020403
  },
  {
    "name": "Bennett College",
    "lat": 36.067531,
    "lng": -79.77998
  },
  {
    "name": "Bethune-Cookman University",
    "lat": 29.207195,
    "lng": -81.032946
  },
  {
    "name": "Bishop State Community College",
    "lat": 30.693972,
    "lng": -88.056982
  },
  {
    "name": "Bluefield State College",
    "lat": 37.265732,
    "lng": -81.239037
  },
  {
    "name": "Bowie State University",
    "lat": 39.018185,
    "lng": -76.759721
  },
  {
    "name": "Central State University",
    "lat": 39.715787,
    "lng": -83.880186
  },
  {
    "name": "Charles R Drew University of Medicine and Science",
    "lat": 33.925658,
    "lng": -118.242791
  },
  {
    "name": "Cheyney University of Pennsylvania",
    "lat": 39.932274,
    "lng": -75.529262
  },
  {
    "name": "Claflin University",
    "lat": 33.498444,
    "lng": -80.854319
  },
  {
    "name": "Clark Atlanta University",
    "lat": 33.747628,
    "lng": -84.412584
  },
  {
    "name": "Clemson University",
    "lat": 34.679381,
    "lng": -82.835114
  },
  {
    "name": "Clinton College",
    "lat": 34.913721,
    "lng": -81.043469
  },
  {
    "name": "Coahoma Community College",
    "lat": 34.254417,
    "lng": -90.568469
  },
  {
    "name": "Coppin State University",
    "lat": 39.311258,
    "lng": -76.658687
  },
  {
    "name": "Delaware State University",
    "lat": 39.187173,
    "lng": -75.54053
  },
  {
    "name": "Denmark Technical College",
    "lat": 33.313355,
    "lng": -81.123629
  },
  {
    "name": "Dillard University",
    "lat": 29.996587,
    "lng": -90.06464
  },
  {
    "name": "Edward Waters University",
    "lat": 30.34479,
    "lng": -81.684879
  },
  {
    "name": "Elizabeth City State University",
    "lat": 36.277978,
    "lng": -76.214041
  },
  {
    "name": "Fayetteville State University",
    "lat": 35.073641,
    "lng": -78.891696
  },
  {
    "name": "Fisk University",
    "lat": 36.167087,
    "lng": -86.804805
  },
  {
    "name": "Florida Agricultural and Mechanical University",
    "lat": 30.428504,
    "lng": -84.290226
  },
  {
    "name": "Florida Memorial University",
    "lat": 25.918278,
    "lng": -80.270753
  },
  {
    "name": "Fort Valley State University",
    "lat": 32.537595,
    "lng": -83.89537
  },
  {
    "name": "Gadsden State Community College",
    "lat": 33.994001,
    "lng": -85.991438
  },
  {
    "name": "Georgia State University",
    "lat": 33.7527,
    "lng": -84.38667
  },
  {
    "name": "Grambling State University",
    "lat": 32.523797,
    "lng": -92.713245
  },
  {
    "name": "Hampton University",
    "lat": 37.019944,
    "lng": -76.339161
  },
  {
    "name": "Harris-Stowe State University",
    "lat": 38.631744,
    "lng": -90.224288
  },
  {
    "name": "Hinds Community College",
    "lat": 32.256109,
    "lng": -90.416118
  },
  {
    "name": "Howard University",
    "lat": 38.922392,
    "lng": -77.018966
  },
  {
    "name": "Huston-Tillotson University",
    "lat": 30.264667,
    "lng": -97.721691
  },
  {
    "name": "Jackson State University",
    "lat": 32.296105,
    "lng": -90.207405
  },
  {
    "name": "Johnson C Smith University",
    "lat": 35.243033,
    "lng": -80.857251
  },
  {
    "name": "Kentucky State University",
    "lat": 38.201427,
    "lng": -84.855402
  },
  {
    "name": "Lane College",
    "lat": 35.627378,
    "lng": -88.806535
  },
  {
    "name": "Langston University",
    "lat": 35.943982,
    "lng": -97.260317
  },
  {
    "name": "Lawson State Community College",
    "lat": 33.450814,
    "lng": -86.888844
  },
  {
    "name": "Le Moyne College",
    "lat": 43.049192,
    "lng": -76.090435
  },
  {
    "name": "Lincoln University",
    "lat": 37.804788,
    "lng": -122.269745
  },
  {
    "name": "Lincoln University",
    "lat": 38.564431,
    "lng": -92.166724
  },
  {
    "name": "Lincoln University",
    "lat": 39.807723,
    "lng": -75.926458
  },
  {
    "name": "Livingstone College",
    "lat": 35.670877,
    "lng": -80.483956
  },
  {
    "name": "Meharry Medical College",
    "lat": 36.165458,
    "lng": -86.807371
  },
  {
    "name": "Miles College",
    "lat": 33.482442,
    "lng": -86.908751
  },
  {
    "name": "Mississippi Valley State University",
    "lat": 33.514142,
    "lng": -90.341274
  },
  {
    "name": "Morehouse College",
    "lat": 33.745982,
    "lng": -84.414917
  },
  {
    "name": "Morehouse School of Medicine",
    "lat": 33.742888,
    "lng": -84.41186
  },
  {
    "name": "Morgan State University",
    "lat": 39.344161,
    "lng": -76.585565
  },
  {
    "name": "Morris College",
    "lat": 33.938574,
    "lng": -80.346155
  },
  {
    "name": "Norfolk State University",
    "lat": 36.848429,
    "lng": -76.261375
  },
  {
    "name": "North Carolina Central University",
    "lat": 35.974237,
    "lng": -78.898602
  },
  {
    "name": "Oakwood University",
    "lat": 34.756344,
    "lng": -86.652705
  },
  {
    "name": "Paine College",
    "lat": 33.469545,
    "lng": -81.993225
  },
  {
    "name": "Paul Quinn College",
    "lat": 32.678837,
    "lng": -96.755778
  },
  {
    "name": "Philander Smith College",
    "lat": 34.737131,
    "lng": -92.283015
  },
  {
    "name": "Rust College",
    "lat": 34.776862,
    "lng": -89.446999
  },
  {
    "name": "Saint Augustine's University",
    "lat": 35.785468,
    "lng": -78.621301
  },
  {
    "name": "Savannah State University",
    "lat": 32.024781,
    "lng": -81.063377
  },
  {
    "name": "Shaw University",
    "lat": 35.771181,
    "lng": -78.637693
  },
  {
    "name": "Shelton State Community College",
    "lat": 33.120531,
    "lng": -87.56148
  },
  {
    "name": "Shorter College",
    "lat": 34.75933,
    "lng": -92.261331
  },
  {
    "name": "Simmons College of Kentucky",
    "lat": 38.239519,
    "lng": -85.764811
  },
  {
    "name": "South Carolina State University",
    "lat": 33.497968,
    "lng": -80.848722
  },
  {
    "name": "Southern University at New Orleans",
    "lat": 30.026162,
    "lng": -90.044912
  },
  {
    "name": "Southern University at Shreveport",
    "lat": 32.545632,
    "lng": -93.834559
  },
  {
    "name": "Southwestern Christian College",
    "lat": 32.735508,
    "lng": -96.285649
  },
  {
    "name": "Spelman College",
    "lat": 33.745279,
    "lng": -84.411527
  },
  {
    "name": "St Philip's College",
    "lat": 29.41508,
    "lng": -98.453285
  },
  {
    "name": "Stillman College",
    "lat": 33.200006,
    "lng": -87.585278
  },
  {
    "name": "Talladega College",
    "lat": 33.433472,
    "lng": -86.112704
  },
  {
    "name": "Temple University",
    "lat": 39.980546,
    "lng": -75.156859
  },
  {
    "name": "Tennessee State University",
    "lat": 36.166321,
    "lng": -86.828275
  },
  {
    "name": "Texas College",
    "lat": 32.37456,
    "lng": -95.312454
  },
  {
    "name": "Texas Southern University",
    "lat": 29.721046,
    "lng": -95.361113
  },
  {
    "name": "Tougaloo College",
    "lat": 32.403014,
    "lng": -90.16076
  },
  {
    "name": "Tuskegee University",
    "lat": 32.4309,
    "lng": -85.708492
  },
  {
    "name": "University at Buffalo",
    "lat": 43.000942,
    "lng": -78.789458
  },
  {
    "name": "University of Arizona",
    "lat": 32.232672,
    "lng": -110.950815
  },
  {
    "name": "University of Arkansas at Pine Bluff",
    "lat": 34.244031,
    "lng": -92.018683
  },
  {
    "name": "University of Maine",
    "lat": 44.899257,
    "lng": -68.669332
  },
  {
    "name": "University of Maryland Eastern Shore",
    "lat": 38.207386,
    "lng": -75.686852
  },
  {
    "name": "University of Notre Dame",
    "lat": 41.703058,
    "lng": -86.238959
  },
  {
    "name": "University of the District of Columbia",
    "lat": 38.943819,
    "lng": -77.066247
  },
  {
    "name": "University of the Virgin Islands",
    "lat": 18.344193,
    "lng": -64.972866
  },
  {
    "name": "Virginia State University",
    "lat": 37.234692,
    "lng": -77.419026
  },
  {
    "name": "Virginia Union University",
    "lat": 37.562405,
    "lng": -77.450903
  },
  {
    "name": "Virginia University of Lynchburg",
    "lat": 37.395187,
    "lng": -79.151615
  },
  {
    "name": "Voorhees College",
    "lat": 33.307199,
    "lng": -81.127863
  },
  {
    "name": "West Virginia State University",
    "lat": 38.380541,
    "lng": -81.765034
  },
  {
    "name": "Wilberforce University",
    "lat": 39.707291,
    "lng": -83.880595
  },
  {
    "name": "Wiley College",
    "lat": 32.537641,
    "lng": -94.376814
  },
  {
    "name": "Winston-Salem State University",
    "lat": 36.089554,
    "lng": -80.225033
  },
  {
    "name": "Xavier University of Louisiana",
    "lat": 29.964162,
    "lng": -90.107307
  }
]